% program   : RTKLIB ver.2.4.2
% inp file  : E:\Mu\postgraduate0\C_language\code\Data\algo0670.22o
% inp file  : E:\Mu\postgraduate0\C_language\code\Data\brdc0670.22n
% inp file  : E:\Mu\postgraduate0\C_language\code\Data\gfz22002.sp3
% inp file  : E:\Mu\postgraduate0\C_language\code\Data\gfz22002.clk
% obs start : 2022/03/08 00:00:00.0 GPST (week2200 172800.0s)
% obs end   : 2022/03/08 23:59:30.0 GPST (week2200 259170.0s)
%
% (x/y/z-ecef=WGS84,Q=1:fix,2:float,3:sbas,4:dgps,5:single,6:ppp,ns=# of satellites)
%  GPST                      x-ecef(m)      y-ecef(m)      z-ecef(m)   Q  ns   sdx(m)   sdy(m)   sdz(m)  sdxy(m)  sdyz(m)  sdzx(m) age(s)  ratio
2022/03/08 00:00:00.000    918130.4361  -4346075.1500   4561983.7362   6   9   2.2146   4.1839   3.6008  -1.2746  -2.7130  -0.6308   0.00    0.0
2022/03/08 00:00:30.000    918130.6559  -4346075.7828   4561983.7107   6   9   1.9088   3.6018   3.0979  -1.1090  -2.3359  -0.5222   0.00    0.0
2022/03/08 00:01:00.000    918130.6288  -4346075.6876   4561984.2483   6   9   1.7943   3.3818   2.9088  -1.0519  -2.1932  -0.4710   0.00    0.0
2022/03/08 00:01:30.000    918129.7485  -4346077.8876   4561985.5530   6  10   1.6957   2.9499   2.6256  -1.2470  -1.7576   0.4122   0.00    0.0
2022/03/08 00:02:00.000    918129.8015  -4346077.7727   4561986.0252   6  10   1.6496   2.7981   2.5215  -1.2743  -1.6177   0.5115   0.00    0.0
2022/03/08 00:02:30.000    918129.7007  -4346078.5432   4561986.3680   6  10   1.6218   2.7236   2.4683  -1.2749  -1.5587   0.5405   0.00    0.0
2022/03/08 00:03:00.000    918129.7163  -4346078.4207   4561986.2831   6  10   1.6024   2.6754   2.4341  -1.2718  -1.5246   0.5555   0.00    0.0
2022/03/08 00:03:30.000    918129.8568  -4346078.5317   4561985.9686   6  10   1.5880   2.6404   2.4099  -1.2685  -1.5023   0.5656   0.00    0.0
2022/03/08 00:04:00.000    918129.6429  -4346078.5931   4561986.3079   6  10   1.5929   2.7627   2.4718  -1.1827  -1.6637   0.4335   0.00    0.0
2022/03/08 00:04:30.000    918129.7966  -4346079.0237   4561986.7606   6  10   1.5747   2.6560   2.4120  -1.2290  -1.5523   0.5273   0.00    0.0
2022/03/08 00:05:00.000    918129.7222  -4346079.1742   4561986.8139   6  10   1.5645   2.6104   2.3867  -1.2420  -1.5108   0.5578   0.00    0.0
2022/03/08 00:05:30.000    918129.6325  -4346079.2243   4561986.7849   6  10   1.5570   2.5817   2.3713  -1.2475  -1.4884   0.5747   0.00    0.0
2022/03/08 00:06:00.000    918129.7448  -4346078.7302   4561986.7548   6  10   1.5511   2.5604   2.3606  -1.2503  -1.4742   0.5865   0.00    0.0
2022/03/08 00:06:30.000    918129.8467  -4346078.5526   4561986.4171   6  10   1.5463   2.5434   2.3527  -1.2520  -1.4644   0.5960   0.00    0.0
2022/03/08 00:07:00.000    918129.8285  -4346078.5442   4561986.7746   6  10   1.5422   2.5289   2.3467  -1.2532  -1.4572   0.6043   0.00    0.0
2022/03/08 00:07:30.000    918129.8397  -4346079.0553   4561986.8572   6  10   1.5387   2.5162   2.3420  -1.2542  -1.4518   0.6117   0.00    0.0
2022/03/08 00:08:00.000    918129.9450  -4346078.4620   4561987.0329   6  10   1.5357   2.5048   2.3385  -1.2550  -1.4477   0.6188   0.00    0.0
2022/03/08 00:08:30.000    918129.9605  -4346078.7901   4561987.1826   6  10   1.5330   2.4944   2.3357  -1.2558  -1.4444   0.6255   0.00    0.0
2022/03/08 00:09:00.000    918129.8840  -4346078.6463   4561987.2118   6  10   1.5308   2.4848   2.3337  -1.2566  -1.4419   0.6320   0.00    0.0
2022/03/08 00:09:30.000    918130.0501  -4346078.4245   4561987.1096   6  10   1.5288   2.4758   2.3324  -1.2573  -1.4400   0.6384   0.00    0.0
2022/03/08 00:10:00.000    918130.3551  -4346078.8057   4561986.2309   6   9   1.5466   2.4701   2.7659  -1.2696  -1.3761   0.2248   0.00    0.0
2022/03/08 00:10:30.000    918129.8225  -4346078.0910   4561985.0855   6   8   1.6894   2.5400   2.9581  -1.4284  -1.6017   0.8897   0.00    0.0
2022/03/08 00:11:00.000    918129.7678  -4346078.3730   4561984.9806   6   8   1.6870   2.5325   2.9589  -1.4284  -1.6075   0.9019   0.00    0.0
2022/03/08 00:11:30.000    918129.3939  -4346078.8446   4561986.3501   6   9   1.6688   2.5091   2.7541  -1.4514  -1.5143   1.0424   0.00    0.0
2022/03/08 00:12:00.000    918129.3295  -4346078.5899   4561986.4209   6   9   1.6605   2.4957   2.6695  -1.4603  -1.4800   1.0982   0.00    0.0
2022/03/08 00:12:30.000    918129.5773  -4346078.4290   4561986.2952   6   9   1.6568   2.4867   2.6429  -1.4634  -1.4727   1.1217   0.00    0.0
2022/03/08 00:13:00.000    918129.6093  -4346078.6048   4561985.6811   6   9   1.6543   2.4789   2.6313  -1.4650  -1.4724   1.1372   0.00    0.0
2022/03/08 00:13:30.000    918129.5023  -4346078.6503   4561986.0673   6   9   1.6523   2.4716   2.6260  -1.4662  -1.4750   1.1497   0.00    0.0
2022/03/08 00:14:00.000    918129.5017  -4346078.7590   4561985.6481   6   9   1.6507   2.4648   2.6240  -1.4670  -1.4791   1.1606   0.00    0.0
2022/03/08 00:14:30.000    918130.4977  -4346080.5455   4561986.5451   6  10   1.5061   2.2430   2.6101  -1.2157  -1.3895   1.0904   0.00    0.0
2022/03/08 00:15:00.000    918130.5433  -4346079.9029   4561986.0332   6  10   1.4488   2.1549   2.6060  -1.1123  -1.3593   1.0692   0.00    0.0
2022/03/08 00:15:30.000    918130.6583  -4346080.0052   4561985.7313   6  10   1.4278   2.1214   2.6061  -1.0764  -1.3528   1.0676   0.00    0.0
2022/03/08 00:16:00.000    918130.6394  -4346080.1613   4561985.8293   6  10   1.4163   2.1021   2.6078  -1.0588  -1.3528   1.0709   0.00    0.0
2022/03/08 00:16:30.000    918130.4611  -4346079.5056   4561985.2223   6  10   1.4088   2.0886   2.6104  -1.0487  -1.3554   1.0761   0.00    0.0
2022/03/08 00:17:00.000    918130.4363  -4346079.5099   4561985.4462   6  10   1.4033   2.0782   2.6137  -1.0424  -1.3594   1.0821   0.00    0.0
2022/03/08 00:17:30.000    918130.4740  -4346079.4699   4561985.0873   6  10   1.3990   2.0697   2.6174  -1.0385  -1.3644   1.0887   0.00    0.0
2022/03/08 00:18:00.000    918130.4717  -4346079.6912   4561985.2144   6  10   1.3955   2.0623   2.6216  -1.0361  -1.3699   1.0956   0.00    0.0
2022/03/08 00:18:30.000    918130.5330  -4346079.7055   4561985.2950   6  10   1.3927   2.0557   2.6261  -1.0346  -1.3759   1.1027   0.00    0.0
2022/03/08 00:19:00.000    918130.5147  -4346079.8462   4561984.9936   6  10   1.3902   2.0498   2.6309  -1.0340  -1.3822   1.1099   0.00    0.0
2022/03/08 00:19:30.000    918130.4970  -4346079.5065   4561984.8822   6  10   1.3882   2.0444   2.6360  -1.0338  -1.3888   1.1172   0.00    0.0
2022/03/08 00:20:00.000    918130.2989  -4346079.4683   4561984.7560   6  10   1.3864   2.0394   2.6413  -1.0342  -1.3955   1.1247   0.00    0.0
2022/03/08 00:20:30.000    918130.4150  -4346079.3612   4561984.7833   6  10   1.3848   2.0347   2.6469  -1.0348  -1.4024   1.1322   0.00    0.0
2022/03/08 00:21:00.000    918130.4132  -4346079.5030   4561984.8852   6  10   1.3834   2.0302   2.6527  -1.0358  -1.4095   1.1397   0.00    0.0
2022/03/08 00:21:30.000    918130.4691  -4346079.1986   4561984.2524   6  10   1.3823   2.0261   2.6587  -1.0370  -1.4167   1.1473   0.00    0.0
2022/03/08 00:22:00.000    918130.3727  -4346079.2684   4561984.0975   6  10   1.3813   2.0221   2.6649  -1.0385  -1.4240   1.1550   0.00    0.0
2022/03/08 00:22:30.000    918130.2444  -4346079.5241   4561984.6950   6  10   1.3804   2.0183   2.6712  -1.0401  -1.4313   1.1627   0.00    0.0
2022/03/08 00:23:00.000    918130.3339  -4346079.3896   4561984.1082   6  10   1.3797   2.0147   2.6778  -1.0419  -1.4388   1.1704   0.00    0.0
2022/03/08 00:23:30.000    918130.4052  -4346079.3820   4561983.9138   6  10   1.3791   2.0112   2.6845  -1.0439  -1.4463   1.1782   0.00    0.0
2022/03/08 00:24:00.000    918130.4275  -4346079.5107   4561984.3908   6  10   1.3787   2.0079   2.6914  -1.0460  -1.4539   1.1860   0.00    0.0
2022/03/08 00:24:30.000    918130.3976  -4346079.6090   4561984.3771   6  10   1.3783   2.0047   2.6984  -1.0482  -1.4615   1.1939   0.00    0.0
2022/03/08 00:25:00.000    918130.3282  -4346079.4904   4561984.0530   6  10   1.3781   2.0016   2.7056  -1.0505  -1.4692   1.2018   0.00    0.0
2022/03/08 00:25:30.000    918130.5890  -4346079.4501   4561983.8306   6  10   1.3780   1.9986   2.7129  -1.0529  -1.4769   1.2097   0.00    0.0
2022/03/08 00:26:00.000    918130.4379  -4346079.4682   4561983.3638   6  10   1.3779   1.9958   2.7203  -1.0554  -1.4847   1.2177   0.00    0.0
2022/03/08 00:26:30.000    918130.3843  -4346079.3540   4561983.9952   6  10   1.3780   1.9931   2.7279  -1.0581  -1.4925   1.2257   0.00    0.0
2022/03/08 00:27:00.000    918130.4884  -4346079.0095   4561983.6382   6  10   1.3782   1.9905   2.7357  -1.0608  -1.5003   1.2338   0.00    0.0
2022/03/08 00:27:30.000    918130.2857  -4346079.3237   4561983.8190   6  10   1.3784   1.9879   2.7435  -1.0636  -1.5082   1.2419   0.00    0.0
2022/03/08 00:28:00.000    918130.5803  -4346079.0966   4561983.8319   6  10   1.3788   1.9855   2.7515  -1.0664  -1.5160   1.2500   0.00    0.0
2022/03/08 00:28:30.000    918130.4134  -4346079.1239   4561983.5394   6  10   1.3792   1.9780   2.7595  -1.0693  -1.5250   1.2582   0.00    0.0
2022/03/08 00:29:00.000    918130.3471  -4346079.2516   4561983.1122   6  10   1.3794   1.9738   2.7672  -1.0739  -1.5308   1.2670   0.00    0.0
2022/03/08 00:29:30.000    918130.4443  -4346079.1154   4561983.3510   6  10   1.3800   1.9731   2.7756  -1.0768  -1.5386   1.2752   0.00    0.0
2022/03/08 00:30:00.000    918130.2987  -4346079.2765   4561983.2325   6  10   1.3807   1.9724   2.7841  -1.0799  -1.5465   1.2834   0.00    0.0
2022/03/08 00:30:30.000    918130.3987  -4346078.8546   4561982.8494   6  10   1.3815   1.9718   2.7927  -1.0830  -1.5545   1.2916   0.00    0.0
2022/03/08 00:31:00.000    918130.2628  -4346079.3504   4561983.0984   6  10   1.3824   1.9713   2.8014  -1.0862  -1.5624   1.2999   0.00    0.0
2022/03/08 00:31:30.000    918130.4506  -4346079.6155   4561983.2358   6  10   1.3833   1.9710   2.8102  -1.0895  -1.5704   1.3082   0.00    0.0
2022/03/08 00:32:00.000    918130.4666  -4346079.3786   4561983.1165   6  10   1.3844   1.9707   2.8191  -1.0928  -1.5784   1.3166   0.00    0.0
2022/03/08 00:32:30.000    918130.4346  -4346079.1347   4561982.9185   6  10   1.3855   1.9705   2.8280  -1.0963  -1.5865   1.3249   0.00    0.0
2022/03/08 00:33:00.000    918130.3133  -4346079.7161   4561982.8380   6  10   1.3866   1.9705   2.8371  -1.0998  -1.5946   1.3333   0.00    0.0
2022/03/08 00:33:30.000    918130.4872  -4346079.1374   4561982.7519   6  10   1.3879   1.9705   2.8462  -1.1033  -1.6027   1.3418   0.00    0.0
2022/03/08 00:34:00.000    918130.4892  -4346079.6516   4561983.0742   6  10   1.3892   1.9706   2.8554  -1.1070  -1.6108   1.3503   0.00    0.0
2022/03/08 00:34:30.000    918130.4424  -4346079.4324   4561982.6950   6  10   1.3906   1.9708   2.8646  -1.1107  -1.6190   1.3588   0.00    0.0
2022/03/08 00:35:00.000    918130.2979  -4346079.6871   4561982.7248   6  10   1.3921   1.9711   2.8740  -1.1145  -1.6272   1.3673   0.00    0.0
2022/03/08 00:35:30.000    918130.5112  -4346079.3702   4561982.4715   6  10   1.3936   1.9715   2.8834  -1.1183  -1.6354   1.3759   0.00    0.0
2022/03/08 00:36:00.000    918130.3323  -4346079.4745   4561982.8191   6  10   1.3952   1.9720   2.8928  -1.1222  -1.6436   1.3845   0.00    0.0
2022/03/08 00:36:30.000    918130.2850  -4346079.4001   4561982.5548   6  10   1.3969   1.9726   2.9023  -1.1262  -1.6519   1.3931   0.00    0.0
2022/03/08 00:37:00.000    918130.4985  -4346079.6635   4561982.6891   6  10   1.3986   1.9734   2.9119  -1.1302  -1.6601   1.4018   0.00    0.0
2022/03/08 00:37:30.000    918130.4845  -4346079.8853   4561982.8748   6  10   1.4004   1.9742   2.9215  -1.1343  -1.6684   1.4104   0.00    0.0
2022/03/08 00:38:00.000    918130.3603  -4346079.8921   4561982.7815   6  10   1.4023   1.9751   2.9312  -1.1385  -1.6768   1.4192   0.00    0.0
2022/03/08 00:38:30.000    918130.5299  -4346080.1562   4561982.8736   6  10   1.4043   1.9761   2.9409  -1.1427  -1.6851   1.4279   0.00    0.0
2022/03/08 00:39:00.000    918130.5902  -4346079.9751   4561983.0225   6  10   1.4063   1.9772   2.9507  -1.1470  -1.6935   1.4366   0.00    0.0
2022/03/08 00:39:30.000    918130.5576  -4346080.2632   4561982.5834   6  10   1.4084   1.9785   2.9605  -1.1514  -1.7019   1.4454   0.00    0.0
2022/03/08 00:40:00.000    918130.5727  -4346080.1866   4561982.6381   6  10   1.4105   1.9799   2.9703  -1.1558  -1.7103   1.4542   0.00    0.0
2022/03/08 00:40:30.000    918130.4978  -4346080.3149   4561982.9787   6  10   1.4127   1.9813   2.9802  -1.1603  -1.7187   1.4630   0.00    0.0
2022/03/08 00:41:00.000    918130.5772  -4346080.2307   4561982.9870   6  10   1.4150   1.9829   2.9901  -1.1649  -1.7271   1.4718   0.00    0.0
2022/03/08 00:41:30.000    918130.6015  -4346080.5377   4561982.7284   6  10   1.4173   1.9846   3.0000  -1.1695  -1.7356   1.4807   0.00    0.0
2022/03/08 00:42:00.000    918130.6494  -4346080.4774   4561982.9376   6  10   1.4197   1.9865   3.0099  -1.1742  -1.7441   1.4895   0.00    0.0
2022/03/08 00:42:30.000    918130.8317  -4346080.9151   4561983.1717   6  10   1.4222   1.9884   3.0198  -1.1789  -1.7526   1.4984   0.00    0.0
2022/03/08 00:43:00.000    918130.7789  -4346080.9655   4561982.9267   6  10   1.4247   1.9905   3.0297  -1.1838  -1.7612   1.5073   0.00    0.0
2022/03/08 00:43:30.000    918130.3385  -4346077.3359   4561982.2742   6   9   1.4359   2.3777   3.0471  -1.2712  -1.8463   1.5271   0.00    0.0
2022/03/08 00:44:00.000    918130.3625  -4346078.0065   4561982.0493   6   9   1.4391   2.3802   3.0582  -1.2787  -1.8602   1.5372   0.00    0.0
2022/03/08 00:44:30.000    918130.2431  -4346077.8580   4561982.5223   6   9   1.4424   2.3828   3.0694  -1.2862  -1.8741   1.5473   0.00    0.0
2022/03/08 00:45:00.000    918130.2771  -4346077.2808   4561982.0463   6   9   1.4459   2.3855   3.0806  -1.2938  -1.8879   1.5575   0.00    0.0
2022/03/08 00:45:30.000    918130.2446  -4346077.6377   4561982.5071   6   9   1.4493   2.3883   3.0919  -1.3015  -1.9018   1.5677   0.00    0.0
2022/03/08 00:46:00.000    918130.2296  -4346077.4716   4561982.1495   6   9   1.4529   2.3912   3.1032  -1.3092  -1.9157   1.5780   0.00    0.0
2022/03/08 00:46:30.000    918130.2190  -4346077.4488   4561982.2092   6   9   1.4566   2.3941   3.1146  -1.3170  -1.9295   1.5883   0.00    0.0
2022/03/08 00:47:00.000    918130.3002  -4346077.5590   4561982.1121   6   9   1.4603   2.3972   3.1261  -1.3248  -1.9433   1.5987   0.00    0.0
2022/03/08 00:47:30.000    918130.0593  -4346077.1533   4561981.7384   6   9   1.4641   2.4003   3.1376  -1.3326  -1.9571   1.6091   0.00    0.0
2022/03/08 00:48:00.000    918130.2509  -4346077.3358   4561982.0694   6   9   1.4680   2.4035   3.1491  -1.3405  -1.9708   1.6195   0.00    0.0
2022/03/08 00:48:30.000    918130.3486  -4346077.1901   4561982.3165   6   9   1.4719   2.4067   3.1606  -1.3485  -1.9845   1.6300   0.00    0.0
2022/03/08 00:49:00.000    918130.2070  -4346077.2605   4561982.2644   6   9   1.4759   2.4100   3.1722  -1.3564  -1.9982   1.6405   0.00    0.0
2022/03/08 00:49:30.000    918130.3364  -4346077.2961   4561982.1885   6   9   1.4800   2.4134   3.1838  -1.3644  -2.0118   1.6510   0.00    0.0
2022/03/08 00:50:00.000    918130.2152  -4346077.1059   4561981.8972   6   9   1.4842   2.4168   3.1954  -1.3725  -2.0254   1.6615   0.00    0.0
2022/03/08 00:50:30.000    918130.1867  -4346076.9278   4561981.7877   6   9   1.4884   2.4203   3.2070  -1.3805  -2.0389   1.6720   0.00    0.0
2022/03/08 00:51:00.000    918130.2762  -4346077.3686   4561981.8459   6   9   1.4927   2.4239   3.2186  -1.3886  -2.0523   1.6826   0.00    0.0
2022/03/08 00:51:30.000    918130.2180  -4346077.4274   4561981.9218   6   9   1.4971   2.4275   3.2301  -1.3967  -2.0657   1.6932   0.00    0.0
2022/03/08 00:52:00.000    918130.3164  -4346077.1067   4561981.9004   6   9   1.5015   2.4312   3.2416  -1.4049  -2.0790   1.7037   0.00    0.0
2022/03/08 00:52:30.000    918130.1392  -4346077.3150   4561981.8500   6   9   1.5060   2.4349   3.2531  -1.4130  -2.0922   1.7143   0.00    0.0
2022/03/08 00:53:00.000    918130.1424  -4346076.8359   4561981.6859   6   9   1.5105   2.4386   3.2645  -1.4212  -2.1053   1.7248   0.00    0.0
2022/03/08 00:53:30.000    918129.9635  -4346076.9109   4561981.8438   6   9   1.5151   2.4424   3.2759  -1.4293  -2.1184   1.7353   0.00    0.0
2022/03/08 00:54:00.000    918130.1694  -4346076.7619   4561982.0691   6   9   1.5197   2.4462   3.2872  -1.4375  -2.1313   1.7458   0.00    0.0
2022/03/08 00:54:30.000    918130.2256  -4346076.8422   4561981.9996   6   9   1.5244   2.4500   3.2984  -1.4457  -2.1441   1.7563   0.00    0.0
2022/03/08 00:55:00.000    918130.7101  -4346077.2341   4561983.7744   6  10   1.4472   2.4133   2.9361  -1.3762  -1.9932   1.5385   0.00    0.0
2022/03/08 00:55:30.000    918130.4875  -4346077.1245   4561983.5559   6  10   1.4198   2.4010   2.7971  -1.3537  -1.9407   1.4557   0.00    0.0
2022/03/08 00:56:00.000    918130.7432  -4346077.4780   4561983.5473   6  10   1.4117   2.3980   2.7500  -1.3493  -1.9273   1.4296   0.00    0.0
2022/03/08 00:56:30.000    918130.7796  -4346077.3403   4561983.2798   6  10   1.4086   2.3973   2.7269  -1.3495  -1.9237   1.4183   0.00    0.0
2022/03/08 00:57:00.000    918130.5804  -4346076.8476   4561983.0463   6  10   1.4074   2.3975   2.7135  -1.3517  -1.9242   1.4130   0.00    0.0
2022/03/08 00:57:30.000    918130.4659  -4346077.2957   4561983.0953   6  10   1.4073   2.3982   2.7050  -1.3547  -1.9265   1.4109   0.00    0.0
2022/03/08 00:58:00.000    918130.5642  -4346076.8853   4561983.0842   6  10   1.4078   2.3992   2.6993  -1.3582  -1.9300   1.4105   0.00    0.0
2022/03/08 00:58:30.000    918130.5009  -4346076.7901   4561982.9655   6  10   1.4087   2.4003   2.6953  -1.3621  -1.9341   1.4112   0.00    0.0
2022/03/08 00:59:00.000    918130.5436  -4346076.9234   4561982.9348   6  10   1.4092   2.4000   2.6917  -1.3675  -1.9371   1.4136   0.00    0.0
2022/03/08 00:59:30.000    918130.4760  -4346076.9801   4561982.9974   6  10   1.4106   2.4015   2.6899  -1.3716  -1.9420   1.4155   0.00    0.0
2022/03/08 01:00:00.000    918130.2179  -4346076.7961   4561982.7698   6  10   1.3834   2.3366   2.4553  -1.2760  -1.7816   1.2360   0.00    0.0
2022/03/08 01:00:30.000    918130.3712  -4346076.6502   4561982.7247   6  10   1.3844   2.3381   2.4547  -1.2799  -1.7872   1.2383   0.00    0.0
2022/03/08 01:01:00.000    918130.3943  -4346076.9595   4561982.9749   6  10   1.3854   2.3396   2.4543  -1.2838  -1.7928   1.2407   0.00    0.0
2022/03/08 01:01:30.000    918130.3818  -4346077.0418   4561982.7187   6  10   1.3865   2.3411   2.4542  -1.2877  -1.7984   1.2433   0.00    0.0
2022/03/08 01:02:00.000    918130.4467  -4346077.2242   4561982.7689   6  10   1.3877   2.3426   2.4543  -1.2917  -1.8039   1.2460   0.00    0.0
2022/03/08 01:02:30.000    918130.3019  -4346076.4452   4561982.4921   6  10   1.3890   2.3441   2.4544  -1.2956  -1.8094   1.2488   0.00    0.0
2022/03/08 01:03:00.000    918130.4977  -4346077.2720   4561982.7049   6  10   1.3903   2.3456   2.4547  -1.2996  -1.8148   1.2517   0.00    0.0
2022/03/08 01:03:30.000    918130.2673  -4346076.8191   4561982.6209   6  10   1.3916   2.3471   2.4550  -1.3036  -1.8201   1.2547   0.00    0.0
2022/03/08 01:04:00.000    918130.4624  -4346076.7378   4561982.3541   6  10   1.3930   2.3485   2.4554  -1.3076  -1.8254   1.2577   0.00    0.0
2022/03/08 01:04:30.000    918130.4875  -4346076.8572   4561982.3917   6  10   1.3945   2.3499   2.4558  -1.3116  -1.8305   1.2607   0.00    0.0
2022/03/08 01:05:00.000    918130.3154  -4346076.8825   4561982.3556   6  10   1.3959   2.3513   2.4562  -1.3156  -1.8356   1.2637   0.00    0.0
2022/03/08 01:05:30.000    918130.1370  -4346076.5069   4561982.2469   6  10   1.3975   2.3526   2.4566  -1.3196  -1.8405   1.2668   0.00    0.0
2022/03/08 01:06:00.000    918130.2256  -4346076.3832   4561982.4439   6  10   1.3990   2.3539   2.4570  -1.3235  -1.8453   1.2699   0.00    0.0
2022/03/08 01:06:30.000    918130.1809  -4346076.8344   4561982.4636   6  10   1.4006   2.3552   2.4575  -1.3275  -1.8501   1.2730   0.00    0.0
2022/03/08 01:07:00.000    918130.0701  -4346076.4081   4561982.3452   6  10   1.4022   2.3564   2.4579  -1.3314  -1.8547   1.2761   0.00    0.0
2022/03/08 01:07:30.000    918130.1248  -4346076.5933   4561982.3022   6  10   1.4038   2.3576   2.4583  -1.3353  -1.8592   1.2791   0.00    0.0
2022/03/08 01:08:00.000    918130.3896  -4346076.8217   4561982.2129   6  10   1.4054   2.3588   2.4586  -1.3392  -1.8635   1.2822   0.00    0.0
2022/03/08 01:08:30.000    918130.3289  -4346076.7785   4561982.3416   6  10   1.4071   2.3599   2.4589  -1.3431  -1.8678   1.2853   0.00    0.0
2022/03/08 01:09:00.000    918130.2220  -4346076.5425   4561982.4063   6  10   1.4088   2.3609   2.4592  -1.3469  -1.8719   1.2883   0.00    0.0
2022/03/08 01:09:30.000    918130.2453  -4346076.7562   4561982.1420   6  10   1.4105   2.3619   2.4594  -1.3507  -1.8759   1.2913   0.00    0.0
2022/03/08 01:10:00.000    918130.2182  -4346076.8115   4561982.3017   6  10   1.4123   2.3628   2.4596  -1.3545  -1.8798   1.2943   0.00    0.0
2022/03/08 01:10:30.000    918130.1929  -4346076.3961   4561982.2337   6  10   1.4140   2.3637   2.4597  -1.3582  -1.8835   1.2973   0.00    0.0
2022/03/08 01:11:00.000    918130.1683  -4346076.6532   4561982.1034   6  10   1.4158   2.3645   2.4598  -1.3620  -1.8871   1.3002   0.00    0.0
2022/03/08 01:11:30.000    918130.2637  -4346076.9394   4561982.1640   6  10   1.4176   2.3653   2.4598  -1.3657  -1.8906   1.3031   0.00    0.0
2022/03/08 01:12:00.000    918130.1460  -4346076.9393   4561982.7815   6  10   1.4194   2.3660   2.4598  -1.3693  -1.8939   1.3060   0.00    0.0
2022/03/08 01:12:30.000    918130.1573  -4346076.7137   4561982.2611   6  10   1.4212   2.3666   2.4596  -1.3729  -1.8971   1.3089   0.00    0.0
2022/03/08 01:13:00.000    918130.1729  -4346076.4573   4561982.0361   6  10   1.4230   2.3671   2.4595  -1.3765  -1.9002   1.3117   0.00    0.0
2022/03/08 01:13:30.000    918130.1294  -4346076.6437   4561981.9952   6  10   1.4249   2.3676   2.4592  -1.3800  -1.9031   1.3144   0.00    0.0
2022/03/08 01:14:00.000    918130.2588  -4346076.4900   4561982.1174   6  10   1.4267   2.3680   2.4589  -1.3835  -1.9059   1.3171   0.00    0.0
2022/03/08 01:14:30.000    918130.1071  -4346076.3814   4561981.9396   6  10   1.4286   2.3684   2.4585  -1.3869  -1.9085   1.3198   0.00    0.0
2022/03/08 01:15:00.000    918129.9460  -4346076.3872   4561982.1592   6  10   1.4305   2.3687   2.4580  -1.3903  -1.9110   1.3224   0.00    0.0
2022/03/08 01:15:30.000    918129.9180  -4346076.2360   4561982.0322   6  10   1.4323   2.3689   2.4574  -1.3937  -1.9133   1.3250   0.00    0.0
2022/03/08 01:16:00.000    918130.0541  -4346076.3841   4561982.1314   6  10   1.4342   2.3690   2.4567  -1.3970  -1.9155   1.3275   0.00    0.0
2022/03/08 01:16:30.000    918130.1355  -4346077.1247   4561982.3246   6  10   1.4361   2.3690   2.4560  -1.4002  -1.9176   1.3300   0.00    0.0
2022/03/08 01:17:00.000    918130.1093  -4346076.5655   4561981.8174   6  10   1.4380   2.3690   2.4552  -1.4034  -1.9195   1.3324   0.00    0.0
2022/03/08 01:17:30.000    918130.1589  -4346076.7123   4561981.8493   6  10   1.4399   2.3689   2.4543  -1.4066  -1.9212   1.3347   0.00    0.0
2022/03/08 01:18:00.000    918130.0255  -4346076.4598   4561981.8691   6  10   1.4418   2.3687   2.4533  -1.4097  -1.9228   1.3370   0.00    0.0
2022/03/08 01:18:30.000    918130.0758  -4346076.6337   4561982.0928   6  10   1.4437   2.3684   2.4522  -1.4127  -1.9243   1.3393   0.00    0.0
2022/03/08 01:19:00.000    918130.0399  -4346076.1870   4561982.0363   6  10   1.4456   2.3680   2.4510  -1.4157  -1.9256   1.3414   0.00    0.0
2022/03/08 01:19:30.000    918130.1138  -4346076.6723   4561981.9929   6  10   1.4475   2.3675   2.4497  -1.4186  -1.9267   1.3435   0.00    0.0
2022/03/08 01:20:00.000    918129.8484  -4346076.2874   4561981.8493   6  10   1.4494   2.3670   2.4483  -1.4215  -1.9277   1.3456   0.00    0.0
2022/03/08 01:20:30.000    918129.9371  -4346076.5401   4561982.4220   6  10   1.4513   2.3664   2.4469  -1.4243  -1.9285   1.3475   0.00    0.0
2022/03/08 01:21:00.000    918129.9160  -4346076.2553   4561981.9406   6  10   1.4527   2.3653   2.4409  -1.4275  -1.9277   1.3515   0.00    0.0
2022/03/08 01:21:30.000    918130.0893  -4346076.5323   4561982.3726   6  10   1.4547   2.3645   2.4395  -1.4302  -1.9283   1.3531   0.00    0.0
2022/03/08 01:22:00.000    918129.9378  -4346076.4361   4561982.0112   6  10   1.4566   2.3636   2.4381  -1.4327  -1.9288   1.3546   0.00    0.0
2022/03/08 01:22:30.000    918129.8949  -4346076.3084   4561982.1548   6  10   1.4585   2.3626   2.4366  -1.4352  -1.9291   1.3561   0.00    0.0
2022/03/08 01:23:00.000    918130.1287  -4346077.0496   4561982.3927   6  10   1.4604   2.3615   2.4350  -1.4376  -1.9293   1.3576   0.00    0.0
2022/03/08 01:23:30.000    918129.8295  -4346076.1566   4561982.0600   6  10   1.4624   2.3604   2.4333  -1.4400  -1.9293   1.3589   0.00    0.0
2022/03/08 01:24:00.000    918129.8323  -4346076.6379   4561982.3094   6  10   1.4642   2.3591   2.4316  -1.4423  -1.9292   1.3602   0.00    0.0
2022/03/08 01:24:30.000    918129.9884  -4346076.1349   4561982.0112   6  10   1.4661   2.3578   2.4297  -1.4445  -1.9290   1.3613   0.00    0.0
2022/03/08 01:25:00.000    918129.8872  -4346076.5927   4561982.3449   6  10   1.4680   2.3564   2.4278  -1.4466  -1.9286   1.3625   0.00    0.0
2022/03/08 01:25:30.000    918129.7646  -4346076.3593   4561982.1982   6  10   1.4698   2.3549   2.4258  -1.4487  -1.9281   1.3635   0.00    0.0
2022/03/08 01:26:00.000    918129.8506  -4346076.9824   4561982.2331   6  10   1.4717   2.3532   2.4237  -1.4507  -1.9274   1.3644   0.00    0.0
2022/03/08 01:26:30.000    918129.7884  -4346076.4654   4561982.4445   6  10   1.4723   2.3506   2.4185  -1.4513  -1.9244   1.3627   0.00    0.0
2022/03/08 01:27:00.000    918129.7041  -4346076.8545   4561982.6883   6  10   1.4742   2.3489   2.4166  -1.4533  -1.9238   1.3638   0.00    0.0
2022/03/08 01:27:30.000    918129.7089  -4346076.5824   4561982.2231   6  10   1.4762   2.3472   2.4147  -1.4552  -1.9229   1.3649   0.00    0.0
2022/03/08 01:28:00.000    918129.6539  -4346076.9186   4561982.5185   6  10   1.4781   2.3453   2.4126  -1.4571  -1.9220   1.3658   0.00    0.0
2022/03/08 01:28:30.000    918129.4426  -4346076.1453   4561982.2183   6  10   1.4782   2.3425   2.4105  -1.4573  -1.9209   1.3668   0.00    0.0
2022/03/08 01:29:00.000    918129.8539  -4346076.7788   4561982.4442   6  10   1.4802   2.3406   2.4083  -1.4592  -1.9197   1.3676   0.00    0.0
2022/03/08 01:29:30.000    918129.8081  -4346076.3558   4561982.4195   6  10   1.4822   2.3385   2.4060  -1.4610  -1.9183   1.3683   0.00    0.0
2022/03/08 01:30:00.000    918129.9711  -4346076.9333   4561982.4430   6  10   1.4842   2.3364   2.4036  -1.4627  -1.9167   1.3689   0.00    0.0
2022/03/08 01:30:30.000    918129.7094  -4346076.3151   4561982.4377   6  10   1.4862   2.3342   2.4011  -1.4643  -1.9150   1.3694   0.00    0.0
2022/03/08 01:31:00.000    918129.9650  -4346076.6493   4561982.5068   6  10   1.4881   2.3319   2.3985  -1.4659  -1.9132   1.3698   0.00    0.0
2022/03/08 01:31:30.000    918129.9896  -4346076.8187   4561982.7876   6  10   1.4900   2.3295   2.3959  -1.4673  -1.9112   1.3701   0.00    0.0
2022/03/08 01:32:00.000    918129.8811  -4346077.1881   4561983.0804   6  10   1.4919   2.3270   2.3932  -1.4687  -1.9091   1.3704   0.00    0.0
2022/03/08 01:32:30.000    918129.9029  -4346077.0054   4561983.1884   6  10   1.4938   2.3244   2.3903  -1.4700  -1.9068   1.3705   0.00    0.0
2022/03/08 01:33:00.000    918129.7965  -4346076.8452   4561982.9750   6  10   1.4956   2.3217   2.3874  -1.4712  -1.9044   1.3705   0.00    0.0
2022/03/08 01:33:30.000    918129.7356  -4346076.9843   4561983.2192   6  10   1.4974   2.3189   2.3845  -1.4723  -1.9019   1.3704   0.00    0.0
2022/03/08 01:34:00.000    918130.0018  -4346077.2777   4561983.0733   6  10   1.4992   2.3161   2.3814  -1.4734  -1.8992   1.3703   0.00    0.0
2022/03/08 01:34:30.000    918129.8504  -4346077.1184   4561982.8635   6  10   1.5009   2.3131   2.3783  -1.4744  -1.8964   1.3700   0.00    0.0
2022/03/08 01:35:00.000    918129.8156  -4346076.7144   4561982.7334   6  10   1.5027   2.3101   2.3751  -1.4752  -1.8934   1.3696   0.00    0.0
2022/03/08 01:35:30.000    918129.8278  -4346076.9863   4561982.9175   6  10   1.5043   2.3070   2.3718  -1.4760  -1.8903   1.3692   0.00    0.0
2022/03/08 01:36:00.000    918129.9361  -4346077.6365   4561983.3687   6  10   1.5060   2.3038   2.3684  -1.4767  -1.8871   1.3686   0.00    0.0
2022/03/08 01:36:30.000    918131.0681  -4346078.7411   4561984.4385   6  11   1.3478   2.0886   2.2723  -1.2374  -1.7077   1.1951   0.00    0.0
2022/03/08 01:37:00.000    918130.7271  -4346078.6555   4561984.2994   6  11   1.2810   1.9968   2.2329  -1.1304  -1.6318   1.1206   0.00    0.0
2022/03/08 01:37:30.000    918130.6134  -4346078.5152   4561984.1156   6  11   1.2575   1.9625   2.2181  -1.0915  -1.6038   1.0940   0.00    0.0
2022/03/08 01:38:00.000    918130.6691  -4346078.2947   4561984.3325   6  11   1.2455   1.9431   2.2094  -1.0709  -1.5882   1.0800   0.00    0.0
2022/03/08 01:38:30.000    918130.6258  -4346078.5443   4561984.3396   6  11   1.2380   1.9298   2.2033  -1.0578  -1.5776   1.0712   0.00    0.0
2022/03/08 01:39:00.000    918130.7013  -4346078.6285   4561984.3447   6  11   1.2329   1.9195   2.1985  -1.0486  -1.5696   1.0651   0.00    0.0
2022/03/08 01:39:30.000    918130.4346  -4346078.2535   4561984.4887   6  11   1.2292   1.9111   2.1943  -1.0416  -1.5631   1.0604   0.00    0.0
2022/03/08 01:40:00.000    918130.4040  -4346078.4609   4561984.2804   6  11   1.2263   1.9038   2.1907  -1.0361  -1.5575   1.0567   0.00    0.0
2022/03/08 01:40:30.000    918130.4267  -4346078.3886   4561984.2874   6  11   1.2241   1.8972   2.1874  -1.0315  -1.5524   1.0537   0.00    0.0
2022/03/08 01:41:00.000    918130.5280  -4346078.4091   4561984.3364   6  11   1.2223   1.8913   2.1842  -1.0277  -1.5479   1.0511   0.00    0.0
2022/03/08 01:41:30.000    918130.4087  -4346078.3097   4561984.4569   6  11   1.2208   1.8857   2.1813  -1.0244  -1.5436   1.0488   0.00    0.0
2022/03/08 01:42:00.000    918130.3907  -4346078.2808   4561984.6734   6  11   1.2195   1.8805   2.1785  -1.0214  -1.5396   1.0468   0.00    0.0
2022/03/08 01:42:30.000    918130.2310  -4346078.3870   4561984.7395   6  11   1.2184   1.8744   2.1733  -1.0184  -1.5335   1.0444   0.00    0.0
2022/03/08 01:43:00.000    918130.4203  -4346078.4756   4561984.8481   6  11   1.2175   1.8698   2.1710  -1.0161  -1.5301   1.0427   0.00    0.0
2022/03/08 01:43:30.000    918130.1165  -4346078.1540   4561984.7118   6  11   1.2168   1.8653   2.1687  -1.0139  -1.5267   1.0412   0.00    0.0
2022/03/08 01:44:00.000    918130.1910  -4346078.1820   4561985.2615   6  11   1.2161   1.8610   2.1665  -1.0120  -1.5235   1.0398   0.00    0.0
2022/03/08 01:44:30.000    918130.2862  -4346078.3126   4561984.9447   6  11   1.2156   1.8568   2.1644  -1.0102  -1.5203   1.0385   0.00    0.0
2022/03/08 01:45:00.000    918129.9585  -4346078.3355   4561985.1052   6  11   1.2151   1.8528   2.1623  -1.0085  -1.5172   1.0372   0.00    0.0
2022/03/08 01:45:30.000    918130.2380  -4346078.4203   4561984.9760   6  11   1.2147   1.8488   2.1603  -1.0069  -1.5142   1.0360   0.00    0.0
2022/03/08 01:46:00.000    918130.1876  -4346078.7025   4561985.2543   6  11   1.2144   1.8450   2.1584  -1.0054  -1.5112   1.0348   0.00    0.0
2022/03/08 01:46:30.000    918129.9692  -4346078.4222   4561984.9439   6  11   1.2142   1.8412   2.1565  -1.0039  -1.5082   1.0337   0.00    0.0
2022/03/08 01:47:00.000    918129.9345  -4346078.2568   4561985.1749   6  11   1.2140   1.8375   2.1546  -1.0026  -1.5053   1.0326   0.00    0.0
2022/03/08 01:47:30.000    918129.9996  -4346078.3567   4561985.6454   6  11   1.2138   1.8339   2.1528  -1.0013  -1.5024   1.0315   0.00    0.0
2022/03/08 01:48:00.000    918130.0234  -4346078.5238   4561985.6424   6  11   1.2137   1.8303   2.1511  -1.0000  -1.4996   1.0304   0.00    0.0
2022/03/08 01:48:30.000    918130.1053  -4346078.8487   4561986.0518   6  11   1.2136   1.8268   2.1494  -0.9989  -1.4968   1.0293   0.00    0.0
2022/03/08 01:49:00.000    918129.8894  -4346078.5194   4561985.9256   6  11   1.2136   1.8234   2.1478  -0.9977  -1.4940   1.0282   0.00    0.0
2022/03/08 01:49:30.000    918129.9262  -4346078.6782   4561986.1932   6  11   1.2136   1.8201   2.1462  -0.9966  -1.4913   1.0272   0.00    0.0
2022/03/08 01:50:00.000    918129.7413  -4346078.3821   4561986.0707   6  11   1.2137   1.8168   2.1447  -0.9956  -1.4885   1.0261   0.00    0.0
2022/03/08 01:50:30.000    918130.0945  -4346077.2119   4561982.4421   6  10   1.2212   1.8778   2.5474  -0.9599  -1.6983   0.9294   0.00    0.0
2022/03/08 01:51:00.000    918130.1169  -4346077.2437   4561982.3656   6  10   1.2211   1.8750   2.5462  -0.9595  -1.6961   0.9299   0.00    0.0
2022/03/08 01:51:30.000    918130.0660  -4346077.1691   4561982.5812   6  10   1.2210   1.8722   2.5448  -0.9591  -1.6939   0.9304   0.00    0.0
2022/03/08 01:52:00.000    918130.2226  -4346077.7095   4561982.6848   6  10   1.2209   1.8694   2.5434  -0.9587  -1.6916   0.9308   0.00    0.0
2022/03/08 01:52:30.000    918130.0431  -4346077.0236   4561982.3819   6  10   1.2209   1.8667   2.5419  -0.9584  -1.6893   0.9313   0.00    0.0
2022/03/08 01:53:00.000    918129.9599  -4346077.1266   4561982.3751   6  10   1.2209   1.8639   2.5402  -0.9581  -1.6868   0.9318   0.00    0.0
2022/03/08 01:53:30.000    918130.0705  -4346077.2414   4561982.6612   6  10   1.2209   1.8612   2.5384  -0.9578  -1.6843   0.9322   0.00    0.0
2022/03/08 01:54:00.000    918130.0866  -4346076.8086   4561982.4037   6  10   1.2209   1.8585   2.5366  -0.9576  -1.6817   0.9327   0.00    0.0
2022/03/08 01:54:30.000    918130.0472  -4346077.4811   4561982.5326   6  10   1.2210   1.8558   2.5346  -0.9573  -1.6791   0.9331   0.00    0.0
2022/03/08 01:55:00.000    918130.2139  -4346077.5298   4561982.4884   6  10   1.2211   1.8531   2.5325  -0.9571  -1.6763   0.9335   0.00    0.0
2022/03/08 01:55:30.000    918130.0263  -4346077.1530   4561982.2623   6  10   1.2212   1.8504   2.5303  -0.9569  -1.6735   0.9339   0.00    0.0
2022/03/08 01:56:00.000    918130.0523  -4346077.3740   4561982.4649   6  10   1.2214   1.8477   2.5280  -0.9568  -1.6706   0.9342   0.00    0.0
2022/03/08 01:56:30.000    918129.8769  -4346077.1918   4561982.6357   6  10   1.2216   1.8451   2.5256  -0.9566  -1.6676   0.9345   0.00    0.0
2022/03/08 01:57:00.000    918129.7811  -4346076.9633   4561982.4601   6  10   1.2218   1.8424   2.5230  -0.9565  -1.6645   0.9348   0.00    0.0
2022/03/08 01:57:30.000    918129.8451  -4346077.0821   4561982.3903   6  10   1.2220   1.8398   2.5204  -0.9563  -1.6614   0.9351   0.00    0.0
2022/03/08 01:58:00.000    918129.8924  -4346077.4071   4561982.7478   6  10   1.2222   1.8372   2.5176  -0.9562  -1.6581   0.9353   0.00    0.0
2022/03/08 01:58:30.000    918129.8703  -4346077.2960   4561982.8318   6  10   1.2225   1.8346   2.5147  -0.9561  -1.6548   0.9355   0.00    0.0
2022/03/08 01:59:00.000    918129.6830  -4346077.3374   4561982.7545   6  10   1.2227   1.8320   2.5117  -0.9560  -1.6514   0.9356   0.00    0.0
2022/03/08 01:59:30.000    918129.7124  -4346077.2037   4561982.5998   6  10   1.2230   1.8294   2.5086  -0.9559  -1.6480   0.9357   0.00    0.0
2022/03/08 02:00:00.000    918129.4316  -4346077.6782   4561982.4955   6  10   1.2797   1.8316   2.5434  -0.9816  -1.6620   1.0199   0.00    0.0
2022/03/08 02:00:30.000    918129.4770  -4346077.6370   4561982.6783   6  10   1.2801   1.8288   2.5388  -0.9808  -1.6576   1.0185   0.00    0.0
2022/03/08 02:01:00.000    918129.5200  -4346077.7586   4561982.7144   6  10   1.2805   1.8260   2.5341  -0.9801  -1.6532   1.0171   0.00    0.0
2022/03/08 02:01:30.000    918129.4736  -4346077.3822   4561982.7916   6  10   1.2809   1.8233   2.5293  -0.9794  -1.6487   1.0156   0.00    0.0
2022/03/08 02:02:00.000    918129.6372  -4346077.3729   4561982.2958   6  10   1.2747   1.8162   2.5237  -0.9708  -1.6419   1.0109   0.00    0.0
2022/03/08 02:02:30.000    918129.6021  -4346077.5882   4561982.5323   6  10   1.2759   1.8141   2.5188  -0.9712  -1.6377   1.0098   0.00    0.0
2022/03/08 02:03:00.000    918129.3942  -4346077.5493   4561982.7297   6  10   1.2772   1.8121   2.5138  -0.9715  -1.6333   1.0087   0.00    0.0
2022/03/08 02:03:30.000    918129.5587  -4346077.7940   4561983.1243   6  10   1.2785   1.8100   2.5088  -0.9719  -1.6288   1.0074   0.00    0.0
2022/03/08 02:04:00.000    918129.5333  -4346075.2778   4561982.1907   6   9   1.2805   2.1610   2.5288  -0.9982  -1.7494   1.0137   0.00    0.0
2022/03/08 02:04:30.000    918129.3632  -4346076.5172   4561982.4792   6  10   1.2812   1.9761   2.5081  -0.9858  -1.6798   1.0072   0.00    0.0
2022/03/08 02:05:00.000    918129.3404  -4346075.1436   4561982.1184   6   9   1.2831   2.1572   2.5171  -1.0031  -1.7425   1.0111   0.00    0.0
2022/03/08 02:05:30.000    918129.1153  -4346075.1022   4561982.2957   6   9   1.2845   2.1556   2.5121  -1.0053  -1.7383   1.0103   0.00    0.0
2022/03/08 02:06:00.000    918129.3074  -4346075.1565   4561982.1454   6   9   1.2860   2.1540   2.5070  -1.0073  -1.7339   1.0095   0.00    0.0
2022/03/08 02:06:30.000    918129.2136  -4346075.0343   4561982.3118   6   9   1.2872   2.1524   2.5014  -1.0096  -1.7296   1.0079   0.00    0.0
2022/03/08 02:07:00.000    918129.2178  -4346074.9373   4561981.9890   6   9   1.2886   2.1508   2.4961  -1.0116  -1.7251   1.0069   0.00    0.0
2022/03/08 02:07:30.000    918129.0243  -4346074.9706   4561982.4116   6   9   1.2901   2.1492   2.4907  -1.0136  -1.7205   1.0057   0.00    0.0
2022/03/08 02:08:00.000    918129.3082  -4346076.0808   4561982.9468   6  10   1.2906   1.9698   2.4712  -0.9940  -1.6489   0.9979   0.00    0.0
2022/03/08 02:08:30.000    918129.2256  -4346076.4981   4561983.1386   6  10   1.2915   1.8822   2.4592  -0.9851  -1.6126   0.9932   0.00    0.0
2022/03/08 02:09:00.000    918129.1562  -4346076.4951   4561983.0020   6  10   1.2927   1.8509   2.4512  -0.9822  -1.5967   0.9903   0.00    0.0
2022/03/08 02:09:30.000    918129.1532  -4346075.2206   4561982.7169   6   9   1.2960   2.1428   2.4680  -1.0211  -1.7011   1.0003   0.00    0.0
2022/03/08 02:10:00.000    918129.1711  -4346075.2924   4561982.6725   6   9   1.2975   2.1413   2.4621  -1.0230  -1.6961   0.9987   0.00    0.0
2022/03/08 02:10:30.000    918129.0280  -4346075.2676   4561982.6615   6   9   1.2990   2.1397   2.4561  -1.0248  -1.6910   0.9970   0.00    0.0
2022/03/08 02:11:00.000    918129.0622  -4346075.0970   4561982.3629   6   9   1.3005   2.1381   2.4501  -1.0266  -1.6858   0.9953   0.00    0.0
2022/03/08 02:11:30.000    918128.9840  -4346074.9641   4561982.5178   6   9   1.3019   2.1366   2.4439  -1.0283  -1.6805   0.9934   0.00    0.0
2022/03/08 02:12:00.000    918129.0219  -4346075.1418   4561982.6140   6   9   1.3034   2.1350   2.4377  -1.0300  -1.6752   0.9915   0.00    0.0
2022/03/08 02:12:30.000    918128.9912  -4346075.1760   4561982.8498   6   9   1.3049   2.1335   2.4314  -1.0317  -1.6698   0.9894   0.00    0.0
2022/03/08 02:13:00.000    918128.8441  -4346074.9973   4561982.6887   6   9   1.3064   2.1319   2.4251  -1.0334  -1.6644   0.9873   0.00    0.0
2022/03/08 02:13:30.000    918128.8074  -4346074.8892   4561982.8061   6   9   1.3079   2.1304   2.4187  -1.0351  -1.6589   0.9851   0.00    0.0
2022/03/08 02:14:00.000    918128.7970  -4346074.8175   4561982.8864   6   9   1.3094   2.1289   2.4122  -1.0367  -1.6533   0.9828   0.00    0.0
2022/03/08 02:14:30.000    918128.8814  -4346074.9531   4561983.1297   6   9   1.3109   2.1274   2.4057  -1.0383  -1.6477   0.9804   0.00    0.0
2022/03/08 02:15:00.000    918129.0241  -4346074.9126   4561983.1909   6   9   1.3124   2.1259   2.3992  -1.0399  -1.6420   0.9780   0.00    0.0
2022/03/08 02:15:30.000    918128.9718  -4346074.9740   4561983.2653   6   9   1.3139   2.1244   2.3926  -1.0414  -1.6363   0.9754   0.00    0.0
2022/03/08 02:16:00.000    918128.8596  -4346075.0138   4561983.1932   6   9   1.3154   2.1230   2.3859  -1.0430  -1.6305   0.9728   0.00    0.0
2022/03/08 02:16:30.000    918128.7938  -4346075.2109   4561983.5323   6   9   1.3169   2.1215   2.3792  -1.0445  -1.6247   0.9700   0.00    0.0
2022/03/08 02:17:00.000    918128.7837  -4346075.2286   4561983.5630   6   9   1.3185   2.1201   2.3725  -1.0460  -1.6188   0.9672   0.00    0.0
2022/03/08 02:17:30.000    918128.6298  -4346075.0339   4561983.4618   6   9   1.3200   2.1187   2.3658  -1.0474  -1.6129   0.9643   0.00    0.0
2022/03/08 02:18:00.000    918128.8375  -4346075.1507   4561983.6256   6   9   1.3215   2.1172   2.3590  -1.0489  -1.6069   0.9613   0.00    0.0
2022/03/08 02:18:30.000    918128.6318  -4346075.0091   4561983.6641   6   9   1.3230   2.1159   2.3522  -1.0503  -1.6009   0.9582   0.00    0.0
2022/03/08 02:19:00.000    918128.7752  -4346075.2640   4561983.9537   6   9   1.3245   2.1145   2.3454  -1.0517  -1.5948   0.9551   0.00    0.0
2022/03/08 02:19:30.000    918128.5276  -4346074.9329   4561983.8188   6   9   1.3261   2.1131   2.3385  -1.0531  -1.5887   0.9518   0.00    0.0
2022/03/08 02:20:00.000    918128.5127  -4346075.0794   4561983.9574   6   9   1.3276   2.1118   2.3317  -1.0545  -1.5826   0.9485   0.00    0.0
2022/03/08 02:20:30.000    918128.5436  -4346075.1682   4561984.2907   6   9   1.3291   2.1105   2.3249  -1.0558  -1.5764   0.9451   0.00    0.0
2022/03/08 02:21:00.000    918128.7035  -4346075.2212   4561984.0522   6   9   1.3307   2.1092   2.3180  -1.0572  -1.5702   0.9416   0.00    0.0
2022/03/08 02:21:30.000    918128.5548  -4346075.1709   4561984.1395   6   9   1.3322   2.1079   2.3112  -1.0585  -1.5640   0.9380   0.00    0.0
2022/03/08 02:22:00.000    918128.6189  -4346075.2730   4561983.9234   6   9   1.3338   2.1067   2.3044  -1.0598  -1.5577   0.9343   0.00    0.0
2022/03/08 02:22:30.000    918128.5869  -4346075.1640   4561984.2299   6   9   1.3353   2.1054   2.2976  -1.0611  -1.5514   0.9305   0.00    0.0
2022/03/08 02:23:00.000    918128.4053  -4346075.3744   4561984.6163   6   9   1.3369   2.1042   2.2908  -1.0624  -1.5451   0.9266   0.00    0.0
2022/03/08 02:23:30.000    918128.4296  -4346075.2133   4561984.4733   6   9   1.3384   2.1031   2.2841  -1.0636  -1.5388   0.9226   0.00    0.0
2022/03/08 02:24:00.000    918128.3573  -4346075.1370   4561984.7079   6   9   1.3400   2.1019   2.2773  -1.0649  -1.5324   0.9186   0.00    0.0
2022/03/08 02:24:30.000    918128.3081  -4346074.9894   4561984.8341   6   9   1.3416   2.1008   2.2706  -1.0661  -1.5261   0.9144   0.00    0.0
2022/03/08 02:25:00.000    918128.2458  -4346075.2267   4561984.9937   6   9   1.3432   2.0997   2.2640  -1.0673  -1.5197   0.9102   0.00    0.0
2022/03/08 02:25:30.000    918128.2261  -4346075.1622   4561985.1281   6   9   1.3448   2.0986   2.2574  -1.0685  -1.5133   0.9059   0.00    0.0
2022/03/08 02:26:00.000    918128.2291  -4346075.1470   4561985.2941   6   9   1.3464   2.0975   2.2508  -1.0697  -1.5068   0.9014   0.00    0.0
2022/03/08 02:26:30.000    918128.0312  -4346075.0408   4561985.0467   6   9   1.3480   2.0965   2.2443  -1.0708  -1.5004   0.8969   0.00    0.0
2022/03/08 02:27:00.000    918128.0270  -4346075.1885   4561985.0828   6   9   1.3496   2.0955   2.2379  -1.0720  -1.4940   0.8922   0.00    0.0
2022/03/08 02:27:30.000    918127.9555  -4346075.2413   4561985.4987   6   9   1.3512   2.0945   2.2315  -1.0731  -1.4875   0.8875   0.00    0.0
2022/03/08 02:28:00.000    918128.1064  -4346075.3720   4561985.7277   6   9   1.3528   2.0936   2.2252  -1.0742  -1.4811   0.8826   0.00    0.0
2022/03/08 02:28:30.000    918128.0142  -4346075.0480   4561985.4677   6   9   1.3545   2.0927   2.2189  -1.0753  -1.4746   0.8777   0.00    0.0
2022/03/08 02:29:00.000    918127.9354  -4346075.1169   4561985.8509   6   9   1.3561   2.0918   2.2128  -1.0764  -1.4681   0.8726   0.00    0.0
2022/03/08 02:29:30.000    918127.7472  -4346075.4649   4561986.0733   6   9   1.3578   2.0909   2.2067  -1.0775  -1.4617   0.8674   0.00    0.0
2022/03/08 02:30:00.000    918127.8418  -4346075.5131   4561986.0065   6   9   1.3595   2.0901   2.2008  -1.0786  -1.4552   0.8621   0.00    0.0
2022/03/08 02:30:30.000    918127.7043  -4346075.4473   4561986.3609   6   9   1.3612   2.0893   2.1949  -1.0797  -1.4488   0.8566   0.00    0.0
2022/03/08 02:31:00.000    918127.7673  -4346075.4929   4561986.5980   6   9   1.3629   2.0886   2.1892  -1.0807  -1.4423   0.8510   0.00    0.0
2022/03/08 02:31:30.000    918127.7680  -4346075.1314   4561986.4832   6   9   1.3646   2.0878   2.1836  -1.0817  -1.4359   0.8453   0.00    0.0
2022/03/08 02:32:00.000    918127.7254  -4346075.3458   4561986.6866   6   9   1.3663   2.0871   2.1781  -1.0828  -1.4295   0.8394   0.00    0.0
2022/03/08 02:32:30.000    918127.7475  -4346075.0566   4561986.8568   6   9   1.3680   2.0865   2.1727  -1.0838  -1.4231   0.8334   0.00    0.0
2022/03/08 02:33:00.000    918127.5113  -4346075.3197   4561986.9422   6   9   1.3698   2.0858   2.1675  -1.0847  -1.4167   0.8272   0.00    0.0
2022/03/08 02:33:30.000    918127.5434  -4346075.3269   4561986.9047   6   9   1.3716   2.0852   2.1625  -1.0857  -1.4103   0.8209   0.00    0.0
2022/03/08 02:34:00.000    918127.2800  -4346075.7900   4561987.8419   6   9   1.3734   2.0847   2.1576  -1.0867  -1.4039   0.8144   0.00    0.0
2022/03/08 02:34:30.000    918129.1951  -4346073.9097   4561981.4966   6   8   1.4994   2.1511   3.1945  -0.9299  -1.7917  -0.8706   0.00    0.0
2022/03/08 02:35:00.000    918129.0598  -4346074.2192   4561981.5963   6   8   1.5008   2.1487   3.1805  -0.9337  -1.7794  -0.8707   0.00    0.0
2022/03/08 02:35:30.000    918129.1671  -4346074.1849   4561981.7073   6   8   1.5021   2.1464   3.1662  -0.9375  -1.7672  -0.8707   0.00    0.0
2022/03/08 02:36:00.000    918128.7497  -4346074.5091   4561982.2014   6   8   1.5035   2.1441   3.1519  -0.9413  -1.7548  -0.8706   0.00    0.0
2022/03/08 02:36:30.000    918128.7890  -4346074.5599   4561981.7853   6   8   1.5048   2.1418   3.1375  -0.9451  -1.7424  -0.8705   0.00    0.0
2022/03/08 02:37:00.000    918128.8285  -4346074.3956   4561981.8653   6   8   1.5061   2.1396   3.1229  -0.9489  -1.7299  -0.8704   0.00    0.0
2022/03/08 02:37:30.000    918128.7394  -4346074.3034   4561981.6767   6   8   1.5075   2.1375   3.1083  -0.9527  -1.7174  -0.8702   0.00    0.0
2022/03/08 02:38:00.000    918128.9585  -4346074.3102   4561982.0767   6   8   1.5088   2.1354   3.0937  -0.9565  -1.7049  -0.8699   0.00    0.0
2022/03/08 02:38:30.000    918128.8931  -4346074.0986   4561982.0296   6   8   1.5101   2.1334   3.0789  -0.9602  -1.6923  -0.8696   0.00    0.0
2022/03/08 02:39:00.000    918128.4979  -4346074.5708   4561982.1726   6   8   1.5114   2.1314   3.0641  -0.9640  -1.6797  -0.8692   0.00    0.0
2022/03/08 02:39:30.000    918128.6012  -4346074.8441   4561982.2352   6   8   1.5127   2.1295   3.0493  -0.9677  -1.6671  -0.8687   0.00    0.0
2022/03/08 02:40:00.000    918128.6776  -4346074.6790   4561982.3553   6   8   1.5140   2.1276   3.0344  -0.9714  -1.6545  -0.8683   0.00    0.0
2022/03/08 02:40:30.000    918128.8556  -4346074.2131   4561982.1352   6   8   1.5153   2.1258   3.0195  -0.9751  -1.6418  -0.8678   0.00    0.0
2022/03/08 02:41:00.000    918128.8663  -4346074.4639   4561982.2551   6   8   1.5166   2.1241   3.0046  -0.9788  -1.6292  -0.8672   0.00    0.0
2022/03/08 02:41:30.000    918128.8948  -4346074.4694   4561982.2994   6   8   1.5179   2.1224   2.9896  -0.9825  -1.6165  -0.8666   0.00    0.0
2022/03/08 02:42:00.000    918128.8676  -4346074.5926   4561982.2562   6   8   1.5192   2.1208   2.9747  -0.9861  -1.6039  -0.8660   0.00    0.0
2022/03/08 02:42:30.000    918128.7598  -4346074.7365   4561982.5806   6   8   1.5205   2.1192   2.9598  -0.9898  -1.5912  -0.8654   0.00    0.0
2022/03/08 02:43:00.000    918128.6559  -4346074.4649   4561982.5535   6   8   1.5217   2.1177   2.9449  -0.9934  -1.5786  -0.8647   0.00    0.0
2022/03/08 02:43:30.000    918128.7867  -4346074.3467   4561982.4228   6   8   1.5230   2.1163   2.9299  -0.9970  -1.5659  -0.8640   0.00    0.0
2022/03/08 02:44:00.000    918128.5271  -4346074.5421   4561982.8277   6   8   1.5243   2.1149   2.9151  -1.0006  -1.5533  -0.8633   0.00    0.0
2022/03/08 02:44:30.000    918128.6674  -4346074.5083   4561982.4317   6   8   1.5255   2.1136   2.9002  -1.0041  -1.5407  -0.8625   0.00    0.0
2022/03/08 02:45:00.000    918128.4644  -4346074.7001   4561982.7927   6   8   1.5268   2.1123   2.8854  -1.0076  -1.5281  -0.8617   0.00    0.0
2022/03/08 02:45:30.000    918127.8737  -4346074.8179   4561985.3349   6   9   1.4709   2.1039   2.3104  -1.0464  -1.4137  -0.1911   0.00    0.0
2022/03/08 02:46:00.000    918127.9986  -4346074.6593   4561985.2355   6   9   1.4552   2.1018   2.1232  -1.0569  -1.3795   0.3974   0.00    0.0
2022/03/08 02:46:30.000    918128.0660  -4346074.9521   4561985.3199   6   9   1.4499   2.1012   2.0539  -1.0607  -1.3663   0.4727   0.00    0.0
2022/03/08 02:47:00.000    918127.9056  -4346074.7496   4561985.0947   6   9   1.4473   2.1010   2.0159  -1.0628  -1.3583   0.5065   0.00    0.0
2022/03/08 02:47:30.000    918128.0719  -4346074.7194   4561985.0503   6   9   1.4457   2.1010   1.9910  -1.0641  -1.3525   0.5260   0.00    0.0
2022/03/08 02:48:00.000    918128.1452  -4346074.8332   4561984.7479   6   9   1.4446   2.1010   1.9728  -1.0650  -1.3478   0.5387   0.00    0.0
2022/03/08 02:48:30.000    918128.1707  -4346074.9502   4561984.9210   6   9   1.4438   2.1010   1.9585  -1.0657  -1.3437   0.5476   0.00    0.0
2022/03/08 02:49:00.000    918128.2452  -4346075.1547   4561984.8428   6   9   1.4432   2.1010   1.9466  -1.0662  -1.3400   0.5541   0.00    0.0
2022/03/08 02:49:30.000    918127.9925  -4346074.8753   4561984.9562   6   9   1.4427   2.1011   1.9365  -1.0666  -1.3365   0.5591   0.00    0.0
2022/03/08 02:50:00.000    918128.1602  -4346075.1263   4561984.7233   6   9   1.4423   2.1011   1.9275  -1.0668  -1.3332   0.5630   0.00    0.0
2022/03/08 02:50:30.000    918128.2970  -4346074.9899   4561984.6435   6   9   1.4419   2.1011   1.9195  -1.0670  -1.3301   0.5660   0.00    0.0
2022/03/08 02:51:00.000    918128.2103  -4346074.9298   4561984.5006   6   9   1.4416   2.1011   1.9122  -1.0671  -1.3270   0.5684   0.00    0.0
2022/03/08 02:51:30.000    918128.2127  -4346075.0887   4561984.3339   6   9   1.4414   2.1011   1.9054  -1.0670  -1.3240   0.5703   0.00    0.0
2022/03/08 02:52:00.000    918128.2258  -4346075.0928   4561984.5210   6   9   1.4411   2.1011   1.8990  -1.0670  -1.3210   0.5718   0.00    0.0
2022/03/08 02:52:30.000    918128.0797  -4346075.4863   4561984.4447   6   9   1.4409   2.1011   1.8931  -1.0668  -1.3181   0.5729   0.00    0.0
2022/03/08 02:53:00.000    918128.1929  -4346075.2386   4561984.5870   6   9   1.4406   2.1011   1.8874  -1.0666  -1.3152   0.5737   0.00    0.0
2022/03/08 02:53:30.000    918128.4107  -4346075.1972   4561984.2784   6   9   1.4404   2.1010   1.8820  -1.0663  -1.3123   0.5743   0.00    0.0
2022/03/08 02:54:00.000    918128.3029  -4346075.1383   4561984.2543   6   9   1.4402   2.1009   1.8769  -1.0660  -1.3094   0.5746   0.00    0.0
2022/03/08 02:54:30.000    918128.4064  -4346075.0088   4561983.9696   6   9   1.4400   2.1008   1.8719  -1.0656  -1.3066   0.5747   0.00    0.0
2022/03/08 02:55:00.000    918128.4815  -4346075.5018   4561984.0485   6   9   1.4398   2.1007   1.8671  -1.0651  -1.3037   0.5746   0.00    0.0
2022/03/08 02:55:30.000    918128.5950  -4346075.5176   4561984.2993   6   9   1.4396   2.1006   1.8625  -1.0646  -1.3008   0.5744   0.00    0.0
2022/03/08 02:56:00.000    918128.6455  -4346075.3483   4561984.0004   6   9   1.4394   2.1005   1.8580  -1.0640  -1.2979   0.5740   0.00    0.0
2022/03/08 02:56:30.000    918128.6205  -4346075.5091   4561984.1365   6   9   1.4392   2.1003   1.8536  -1.0634  -1.2951   0.5734   0.00    0.0
2022/03/08 02:57:00.000    918128.3729  -4346075.4611   4561984.2370   6   9   1.4389   2.1002   1.8493  -1.0627  -1.2922   0.5727   0.00    0.0
2022/03/08 02:57:30.000    918128.4547  -4346075.6225   4561983.9532   6   9   1.4387   2.1000   1.8452  -1.0620  -1.2892   0.5719   0.00    0.0
2022/03/08 02:58:00.000    918128.5355  -4346075.0206   4561983.8402   6   9   1.4385   2.0998   1.8411  -1.0612  -1.2863   0.5710   0.00    0.0
2022/03/08 02:58:30.000    918128.4409  -4346074.9346   4561984.1197   6   9   1.4383   2.0996   1.8371  -1.0604  -1.2834   0.5699   0.00    0.0
2022/03/08 02:59:00.000    918128.4627  -4346075.2739   4561983.7130   6   9   1.4381   2.0993   1.8332  -1.0595  -1.2804   0.5688   0.00    0.0
2022/03/08 02:59:30.000    918128.4677  -4346075.5016   4561983.9098   6   9   1.4379   2.0991   1.8294  -1.0586  -1.2774   0.5675   0.00    0.0
2022/03/08 03:00:00.000    918128.8521  -4346075.4177   4561983.9436   6   9   1.3703   2.0785   1.7274  -1.1082  -1.2400   0.5660   0.00    0.0
2022/03/08 03:00:30.000    918128.8909  -4346075.4102   4561983.9550   6   9   1.3704   2.0780   1.7234  -1.1073  -1.2364   0.5647   0.00    0.0
2022/03/08 03:01:00.000    918128.9973  -4346075.5946   4561983.8627   6   9   1.3705   2.0775   1.7194  -1.1062  -1.2328   0.5632   0.00    0.0
2022/03/08 03:01:30.000    918129.0161  -4346075.4861   4561984.0071   6   9   1.3706   2.0771   1.7155  -1.1052  -1.2291   0.5617   0.00    0.0
2022/03/08 03:02:00.000    918129.2194  -4346076.0124   4561983.9230   6   9   1.3707   2.0766   1.7117  -1.1041  -1.2254   0.5601   0.00    0.0
2022/03/08 03:02:30.000    918129.1767  -4346075.7023   4561983.8561   6   9   1.3707   2.0761   1.7079  -1.1029  -1.2217   0.5584   0.00    0.0
2022/03/08 03:03:00.000    918129.1140  -4346075.8672   4561983.8031   6   9   1.3708   2.0755   1.7042  -1.1017  -1.2180   0.5567   0.00    0.0
2022/03/08 03:03:30.000    918129.2539  -4346076.0343   4561983.8759   6   9   1.3709   2.0750   1.7005  -1.1005  -1.2143   0.5548   0.00    0.0
2022/03/08 03:04:00.000    918129.0689  -4346076.3112   4561984.1828   6   9   1.3710   2.0745   1.6969  -1.0992  -1.2105   0.5530   0.00    0.0
2022/03/08 03:04:30.000    918129.2057  -4346076.1216   4561983.9621   6   9   1.3711   2.0740   1.6934  -1.0979  -1.2067   0.5510   0.00    0.0
2022/03/08 03:05:00.000    918129.1499  -4346076.1639   4561984.1655   6   9   1.3712   2.0735   1.6899  -1.0966  -1.2029   0.5490   0.00    0.0
2022/03/08 03:05:30.000    918129.2276  -4346076.2237   4561984.1204   6   9   1.3713   2.0729   1.6864  -1.0952  -1.1991   0.5469   0.00    0.0
2022/03/08 03:06:00.000    918129.1880  -4346076.4107   4561984.2609   6   9   1.3714   2.0724   1.6830  -1.0938  -1.1953   0.5447   0.00    0.0
2022/03/08 03:06:30.000    918129.3558  -4346076.4570   4561984.3606   6   9   1.3715   2.0719   1.6797  -1.0924  -1.1915   0.5425   0.00    0.0
2022/03/08 03:07:00.000    918129.3304  -4346076.3894   4561984.1980   6   9   1.3716   2.0714   1.6764  -1.0909  -1.1876   0.5402   0.00    0.0
2022/03/08 03:07:30.000    918129.3496  -4346076.2461   4561984.3067   6   9   1.3717   2.0709   1.6732  -1.0894  -1.1837   0.5379   0.00    0.0
2022/03/08 03:08:00.000    918129.2570  -4346076.3930   4561984.1412   6   9   1.3718   2.0704   1.6700  -1.0879  -1.1798   0.5355   0.00    0.0
2022/03/08 03:08:30.000    918129.4816  -4346076.7728   4561984.1308   6   9   1.3720   2.0699   1.6668  -1.0863  -1.1759   0.5331   0.00    0.0
2022/03/08 03:09:00.000    918129.6238  -4346077.4127   4561984.2914   6   9   1.3721   2.0694   1.6637  -1.0848  -1.1720   0.5306   0.00    0.0
2022/03/08 03:09:30.000    918129.7244  -4346077.1490   4561984.3370   6   9   1.3722   2.0690   1.6607  -1.0832  -1.1681   0.5280   0.00    0.0
2022/03/08 03:10:00.000    918129.1102  -4346077.0900   4561984.2612   6   9   1.3724   2.0685   1.6577  -1.0815  -1.1641   0.5254   0.00    0.0
2022/03/08 03:10:30.000    918129.4888  -4346077.2921   4561984.6960   6   9   1.3725   2.0681   1.6548  -1.0799  -1.1602   0.5228   0.00    0.0
2022/03/08 03:11:00.000    918129.1815  -4346077.1723   4561984.4013   6   9   1.3727   2.0677   1.6519  -1.0782  -1.1562   0.5201   0.00    0.0
2022/03/08 03:11:30.000    918129.6510  -4346077.5873   4561984.6294   6   8   1.6912   2.1213   1.7365  -1.2762  -1.2595   0.8972   0.00    0.0
2022/03/08 03:12:00.000    918129.7985  -4346077.5435   4561984.6786   6   8   1.6923   2.1206   1.7349  -1.2744  -1.2561   0.8979   0.00    0.0
2022/03/08 03:12:30.000    918129.8196  -4346077.6391   4561984.9197   6   8   1.6934   2.1199   1.7333  -1.2725  -1.2527   0.8985   0.00    0.0
2022/03/08 03:13:00.000    918129.8375  -4346077.9275   4561984.7444   6   8   1.6945   2.1192   1.7318  -1.2707  -1.2492   0.8992   0.00    0.0
2022/03/08 03:13:30.000    918129.7760  -4346077.7841   4561984.7397   6   8   1.6957   2.1185   1.7304  -1.2688  -1.2458   0.8998   0.00    0.0
2022/03/08 03:14:00.000    918129.9443  -4346077.7486   4561984.7302   6   8   1.6968   2.1179   1.7290  -1.2669  -1.2423   0.9005   0.00    0.0
2022/03/08 03:14:30.000    918129.8555  -4346077.8726   4561984.8640   6   8   1.6980   2.1173   1.7277  -1.2650  -1.2389   0.9011   0.00    0.0
2022/03/08 03:15:00.000    918130.1909  -4346078.2357   4561985.2574   6   8   1.6992   2.1168   1.7265  -1.2631  -1.2354   0.9018   0.00    0.0
2022/03/08 03:15:30.000    918130.0641  -4346078.1954   4561985.3626   6   8   1.7004   2.1163   1.7253  -1.2611  -1.2319   0.9025   0.00    0.0
2022/03/08 03:16:00.000    918130.4358  -4346078.6645   4561985.4075   6   8   1.7017   2.1158   1.7242  -1.2592  -1.2285   0.9031   0.00    0.0
2022/03/08 03:16:30.000    918130.3178  -4346079.0178   4561985.4303   6   8   1.7029   2.1154   1.7231  -1.2572  -1.2250   0.9039   0.00    0.0
2022/03/08 03:17:00.000    918130.3772  -4346078.8600   4561985.4942   6   8   1.7042   2.1150   1.7222  -1.2552  -1.2215   0.9046   0.00    0.0
2022/03/08 03:17:30.000    918130.5033  -4346078.9615   4561985.4979   6   8   1.7056   2.1147   1.7213  -1.2533  -1.2180   0.9053   0.00    0.0
2022/03/08 03:18:00.000    918130.5914  -4346079.3556   4561985.5772   6   8   1.7069   2.1145   1.7205  -1.2513  -1.2146   0.9061   0.00    0.0
2022/03/08 03:18:30.000    918130.4334  -4346080.0344   4561985.8603   6   8   1.7083   2.1143   1.7198  -1.2494  -1.2111   0.9069   0.00    0.0
2022/03/08 03:19:00.000    918130.8960  -4346079.9413   4561986.9233   6   9   1.6968   2.1136   1.6123  -1.2430  -1.1948   0.8357   0.00    0.0
2022/03/08 03:19:30.000    918131.2660  -4346080.2645   4561986.9144   6   9   1.6912   2.1134   1.5535  -1.2393  -1.1862   0.7960   0.00    0.0
2022/03/08 03:20:00.000    918131.0410  -4346079.8995   4561986.9102   6   9   1.6902   2.1135   1.5329  -1.2372  -1.1825   0.7825   0.00    0.0
2022/03/08 03:20:30.000    918130.8705  -4346079.5134   4561987.0366   6   9   1.6904   2.1138   1.5222  -1.2357  -1.1802   0.7758   0.00    0.0
2022/03/08 03:21:00.000    918131.2643  -4346079.9313   4561987.1200   6   9   1.6911   2.1142   1.5155  -1.2343  -1.1784   0.7718   0.00    0.0
2022/03/08 03:21:30.000    918131.3296  -4346080.2163   4561986.9241   6   9   1.6920   2.1147   1.5110  -1.2330  -1.1769   0.7694   0.00    0.0
2022/03/08 03:22:00.000    918131.2626  -4346080.4663   4561987.1272   6   9   1.6932   2.1152   1.5077  -1.2319  -1.1755   0.7678   0.00    0.0
2022/03/08 03:22:30.000    918131.5718  -4346081.1215   4561987.2367   6   9   1.6944   2.1159   1.5053  -1.2308  -1.1744   0.7667   0.00    0.0
2022/03/08 03:23:00.000    918131.2392  -4346080.6349   4561987.2357   6   9   1.6958   2.1166   1.5034  -1.2297  -1.1733   0.7661   0.00    0.0
2022/03/08 03:23:30.000    918131.7757  -4346081.0851   4561987.7336   6   9   1.6972   2.1175   1.5020  -1.2288  -1.1723   0.7657   0.00    0.0
2022/03/08 03:24:00.000    918131.5385  -4346081.8464   4561987.8753   6   9   1.6987   2.1185   1.5010  -1.2279  -1.1715   0.7656   0.00    0.0
